var guideposts =
{
  "type": "FeatureCollection",
  "generator": "overpass-ide",
  "copyright": "The data included in this document is from www.openstreetmap.org. The data is made available under ODbL.",
  "timestamp": "2023-07-02T20:34:00Z",
  "features": [
    {
      "type": "Feature",
      "properties": {
        "@id": "node/444665677",
        "ele": "1610",
        "information": "guidepost",
        "name": "Pré Achard",
        "tourism": "information"
      },
      "geometry": {
        "type": "Point",
        "coordinates": [
          5.5774616,
          44.9954244
        ]
      },
      "id": "node/444665677"
    },
    {
      "type": "Feature",
      "properties": {
        "@id": "node/444665678",
        "ele": "1593",
        "information": "guidepost",
        "name": "Source des Clos",
        "tourism": "information"
      },
      "geometry": {
        "type": "Point",
        "coordinates": [
          5.5855742,
          45.0074336
        ]
      },
      "id": "node/444665678"
    },
    {
      "type": "Feature",
      "properties": {
        "@id": "node/444665679",
        "ele": "1960",
        "information": "guidepost",
        "name": "Pas de l'Oeille",
        "tourism": "information"
      },
      "geometry": {
        "type": "Point",
        "coordinates": [
          5.5839512,
          45.0150249
        ]
      },
      "id": "node/444665679"
    },
    {
      "type": "Feature",
      "properties": {
        "@id": "node/457482359",
        "information": "guidepost",
        "tourism": "information"
      },
      "geometry": {
        "type": "Point",
        "coordinates": [
          5.5942918,
          45.0132266
        ]
      },
      "id": "node/457482359"
    },
    {
      "type": "Feature",
      "properties": {
        "@id": "node/457482573",
        "ele": "1188",
        "information": "guidepost",
        "name": "Chaussoneyre",
        "tourism": "information"
      },
      "geometry": {
        "type": "Point",
        "coordinates": [
          5.6009675,
          45.0085658
        ]
      },
      "id": "node/457482573"
    },
    {
      "type": "Feature",
      "properties": {
        "@id": "node/457482657",
        "ele": "1190",
        "information": "guidepost",
        "name": "La Queue de la Cavale",
        "tourism": "information"
      },
      "geometry": {
        "type": "Point",
        "coordinates": [
          5.6007522,
          45.0010694
        ]
      },
      "id": "node/457482657"
    },
    {
      "type": "Feature",
      "properties": {
        "@id": "node/457482818",
        "ele": "1155",
        "information": "guidepost",
        "name": "Col de l'Arzelier",
        "tourism": "information"
      },
      "geometry": {
        "type": "Point",
        "coordinates": [
          5.5950566,
          44.9919518
        ]
      },
      "id": "node/457482818"
    },
    {
      "type": "Feature",
      "properties": {
        "@id": "node/457482821",
        "ele": "1155",
        "information": "guidepost",
        "name": "Col de l'Arzelier",
        "tourism": "information"
      },
      "geometry": {
        "type": "Point",
        "coordinates": [
          5.5954585,
          44.9907717
        ]
      },
      "id": "node/457482821"
    },
    {
      "type": "Feature",
      "properties": {
        "@id": "node/457485560",
        "ele": "1150",
        "hiking": "yes",
        "information": "guidepost",
        "name": "Les Anémones",
        "note": "Pré du Playnet 1h10 1.9km ⬆ Prélenfrey 1h 3.7km ⬅ Châtelard 25mn 1.6km ⬅ Col de Soliet 1h05 2.3km ➡ Pont des Runes 15mn 1km ➡ Château-Bernard 45mn 2.6km ➡️",
        "tourism": "information"
      },
      "geometry": {
        "type": "Point",
        "coordinates": [
          5.5963906,
          44.9899559
        ]
      },
      "id": "node/457485560"
    },
    {
      "type": "Feature",
      "properties": {
        "@id": "node/490275299",
        "ele": "1530",
        "information": "guidepost",
        "name": "Sous le Ranc des Agnelons",
        "tourism": "information"
      },
      "geometry": {
        "type": "Point",
        "coordinates": [
          5.5975,
          45.0339
        ]
      },
      "id": "node/490275299"
    },
    {
      "type": "Feature",
      "properties": {
        "@id": "node/497124671",
        "ele": "320",
        "information": "guidepost",
        "name": "La Tour de Champ",
        "tourism": "information"
      },
      "geometry": {
        "type": "Point",
        "coordinates": [
          5.7319565,
          45.0703407
        ]
      },
      "id": "node/497124671"
    },
    {
      "type": "Feature",
      "properties": {
        "@id": "node/512562922",
        "ele": "1000",
        "information": "guidepost",
        "name": "Curte",
        "tourism": "information"
      },
      "geometry": {
        "type": "Point",
        "coordinates": [
          5.6461875,
          45.1976554
        ]
      },
      "id": "node/512562922"
    },
    {
      "type": "Feature",
      "properties": {
        "@id": "node/560739691",
        "ele": "980",
        "information": "guidepost",
        "name": "Clairiere Des Douze Apotres",
        "tourism": "information"
      },
      "geometry": {
        "type": "Point",
        "coordinates": [
          5.6426727,
          45.1175281
        ]
      },
      "id": "node/560739691"
    },
    {
      "type": "Feature",
      "properties": {
        "@id": "node/564825509",
        "ele": "640",
        "information": "guidepost",
        "name": "Pont du Gua",
        "tourism": "information"
      },
      "geometry": {
        "type": "Point",
        "coordinates": [
          5.7048791,
          45.2758179
        ]
      },
      "id": "node/564825509"
    },
    {
      "type": "Feature",
      "properties": {
        "@id": "node/565733803",
        "ele": "1330",
        "information": "guidepost",
        "name": "La Prairie",
        "source": "cadastre-dgi-fr source : Direction Générale des Impôts - Cadastre ; mise à jour : 2008",
        "tourism": "information"
      },
      "geometry": {
        "type": "Point",
        "coordinates": [
          5.7629015,
          45.2943386
        ]
      },
      "id": "node/565733803"
    },
    {
      "type": "Feature",
      "properties": {
        "@id": "node/565733809",
        "ele": "1615",
        "information": "guidepost",
        "name": "Plénom",
        "source": "cadastre-dgi-fr source : Direction Générale des Impôts - Cadastre ; mise à jour : 2008",
        "tourism": "information"
      },
      "geometry": {
        "type": "Point",
        "coordinates": [
          5.742314,
          45.2904178
        ]
      },
      "id": "node/565733809"
    },
    {
      "type": "Feature",
      "properties": {
        "@id": "node/565762653",
        "ele": "480",
        "hiking": "yes",
        "information": "guidepost",
        "name": "Les Arcelles",
        "tourism": "information"
      },
      "geometry": {
        "type": "Point",
        "coordinates": [
          5.6713072,
          45.1704398
        ]
      },
      "id": "node/565762653"
    },
    {
      "type": "Feature",
      "properties": {
        "@id": "node/565762654",
        "ele": "480",
        "hiking": "yes",
        "information": "guidepost",
        "name": "Les Arcelles",
        "tourism": "information"
      },
      "geometry": {
        "type": "Point",
        "coordinates": [
          5.6711992,
          45.1704372
        ]
      },
      "id": "node/565762654"
    },
    {
      "type": "Feature",
      "properties": {
        "@id": "node/565762861",
        "ele": "415",
        "information": "guidepost",
        "name": "L'orée du bois",
        "note": "No ele on board",
        "tourism": "information"
      },
      "geometry": {
        "type": "Point",
        "coordinates": [
          5.6711359,
          45.1807363
        ]
      },
      "id": "node/565762861"
    },
    {
      "type": "Feature",
      "properties": {
        "@id": "node/565762977",
        "hiking": "yes",
        "information": "guidepost",
        "note": "No name and no elevation",
        "tourism": "information"
      },
      "geometry": {
        "type": "Point",
        "coordinates": [
          5.6731916,
          45.1710572
        ]
      },
      "id": "node/565762977"
    },
    {
      "type": "Feature",
      "properties": {
        "@id": "node/565762979",
        "ele": "460",
        "hiking": "yes",
        "information": "guidepost",
        "name": "Château de Beauregard",
        "tourism": "information"
      },
      "geometry": {
        "type": "Point",
        "coordinates": [
          5.6733512,
          45.1710441
        ]
      },
      "id": "node/565762979"
    },
    {
      "type": "Feature",
      "properties": {
        "@id": "node/565762990",
        "hiking": "yes",
        "information": "guidepost",
        "noele": "yes",
        "noname": "yes",
        "tourism": "information"
      },
      "geometry": {
        "type": "Point",
        "coordinates": [
          5.6723009,
          45.1817209
        ]
      },
      "id": "node/565762990"
    },
    {
      "type": "Feature",
      "properties": {
        "@id": "node/565762991",
        "ele": "420",
        "hiking": "yes",
        "information": "guidepost",
        "name": "Pré Fauré",
        "tourism": "information"
      },
      "geometry": {
        "type": "Point",
        "coordinates": [
          5.6723147,
          45.1816631
        ]
      },
      "id": "node/565762991"
    },
    {
      "type": "Feature",
      "properties": {
        "@id": "node/567904350",
        "ele": "1100",
        "information": "guidepost",
        "name": "Bens",
        "tourism": "information"
      },
      "geometry": {
        "type": "Point",
        "coordinates": [
          5.7629303,
          45.2644847
        ]
      },
      "id": "node/567904350"
    },
    {
      "type": "Feature",
      "properties": {
        "@id": "node/567904453",
        "ele": "1154",
        "information": "guidepost",
        "name": "Col de Palaquit",
        "tourism": "information"
      },
      "geometry": {
        "type": "Point",
        "coordinates": [
          5.7656955,
          45.273062
        ]
      },
      "id": "node/567904453"
    },
    {
      "type": "Feature",
      "properties": {
        "@id": "node/573398167",
        "ele": "780",
        "hiking": "yes",
        "information": "guidepost",
        "name": "Col de Vence",
        "tourism": "information"
      },
      "geometry": {
        "type": "Point",
        "coordinates": [
          5.7510394,
          45.2340887
        ]
      },
      "id": "node/573398167"
    },
    {
      "type": "Feature",
      "properties": {
        "@id": "node/574270824",
        "ele": "310",
        "information": "guidepost",
        "name": "La Passerelle",
        "source": "v2 ; cadastre-dgi-fr source : Direction Générale des Impôts - Cadastre ; mise à jour : 2009",
        "tourism": "information"
      },
      "geometry": {
        "type": "Point",
        "coordinates": [
          5.721769,
          45.1946731
        ]
      },
      "id": "node/574270824"
    },
    {
      "type": "Feature",
      "properties": {
        "@id": "node/574270825",
        "ele": "410",
        "information": "guidepost",
        "name": "Pointe du Vent",
        "tourism": "information"
      },
      "geometry": {
        "type": "Point",
        "coordinates": [
          5.723475,
          45.1981114
        ]
      },
      "id": "node/574270825"
    },
    {
      "type": "Feature",
      "properties": {
        "@id": "node/574270827",
        "ele": "430",
        "information": "guidepost",
        "name": "Le Balcon",
        "tourism": "information"
      },
      "geometry": {
        "type": "Point",
        "coordinates": [
          5.7236952,
          45.1981476
        ]
      },
      "id": "node/574270827"
    },
    {
      "type": "Feature",
      "properties": {
        "@id": "node/574270838",
        "ele": "470",
        "information": "guidepost",
        "name": "Banquettes de Tirs",
        "tourism": "information"
      },
      "geometry": {
        "type": "Point",
        "coordinates": [
          5.7269554,
          45.1986023
        ]
      },
      "id": "node/574270838"
    },
    {
      "type": "Feature",
      "properties": {
        "@id": "node/574270840",
        "ele": "410",
        "information": "guidepost",
        "name": "L'Assommoir",
        "tourism": "information"
      },
      "geometry": {
        "type": "Point",
        "coordinates": [
          5.7272435,
          45.1983591
        ]
      },
      "id": "node/574270840"
    },
    {
      "type": "Feature",
      "properties": {
        "@id": "node/574270841",
        "ele": "300",
        "information": "guidepost",
        "name": "La Croisée",
        "survey:date": "2022-08-17",
        "tourism": "information"
      },
      "geometry": {
        "type": "Point",
        "coordinates": [
          5.7285011,
          45.1968666
        ]
      },
      "id": "node/574270841"
    },
    {
      "type": "Feature",
      "properties": {
        "@id": "node/574270842",
        "ele": "213",
        "hiking": "yes",
        "information": "guidepost",
        "name": "Fontaine du Lion",
        "survey:date": "2022-09-17",
        "tourism": "information"
      },
      "geometry": {
        "type": "Point",
        "coordinates": [
          5.7285941,
          45.1950239
        ]
      },
      "id": "node/574270842"
    },
    {
      "type": "Feature",
      "properties": {
        "@id": "node/582650598",
        "ele": "510",
        "information": "guidepost",
        "name": "Pied du Glacis",
        "tourism": "information"
      },
      "geometry": {
        "type": "Point",
        "coordinates": [
          5.7253993,
          45.200844
        ]
      },
      "id": "node/582650598"
    },
    {
      "type": "Feature",
      "properties": {
        "@id": "node/582762821",
        "ele": "1130",
        "hiking": "yes",
        "information": "guidepost",
        "name": "Le Bruchet",
        "tourism": "information"
      },
      "geometry": {
        "type": "Point",
        "coordinates": [
          5.7848202,
          45.2654108
        ]
      },
      "id": "node/582762821"
    },
    {
      "type": "Feature",
      "properties": {
        "@id": "node/582762823",
        "ele": "1130",
        "hiking": "yes",
        "information": "guidepost",
        "name": "Le Bruchet",
        "tourism": "information"
      },
      "geometry": {
        "type": "Point",
        "coordinates": [
          5.7847496,
          45.2655609
        ]
      },
      "id": "node/582762823"
    },
    {
      "type": "Feature",
      "properties": {
        "@id": "node/582762863",
        "ele": "1180",
        "hiking": "yes",
        "information": "guidepost",
        "name": "Montjalat",
        "tourism": "information"
      },
      "geometry": {
        "type": "Point",
        "coordinates": [
          5.7869438,
          45.2681379
        ]
      },
      "id": "node/582762863"
    },
    {
      "type": "Feature",
      "properties": {
        "@id": "node/582762866",
        "ele": "1130",
        "hiking": "yes",
        "information": "guidepost",
        "name": "Plaine de Montjalat",
        "tourism": "information"
      },
      "geometry": {
        "type": "Point",
        "coordinates": [
          5.7890021,
          45.2664891
        ]
      },
      "id": "node/582762866"
    },
    {
      "type": "Feature",
      "properties": {
        "@id": "node/582762889",
        "ele": "1225",
        "hiking": "yes",
        "information": "guidepost",
        "name": "Montjalat le Haut",
        "tourism": "information"
      },
      "geometry": {
        "type": "Point",
        "coordinates": [
          5.7879166,
          45.2699654
        ]
      },
      "id": "node/582762889"
    },
    {
      "type": "Feature",
      "properties": {
        "@id": "node/582762905",
        "ele": "1260",
        "hiking": "yes",
        "information": "guidepost",
        "name": "Pied de Velouse",
        "tourism": "information"
      },
      "geometry": {
        "type": "Point",
        "coordinates": [
          5.7889472,
          45.2716146
        ]
      },
      "id": "node/582762905"
    },
    {
      "type": "Feature",
      "properties": {
        "@id": "node/582763319",
        "ele": "1580",
        "hiking": "yes",
        "image": "https://commons.wikimedia.org/wiki/File:Chamechaude_depuis_le_habert.jpg",
        "information": "guidepost",
        "name": "Habert de Chamechaude",
        "tourism": "information"
      },
      "geometry": {
        "type": "Point",
        "coordinates": [
          5.7918175,
          45.280323
        ]
      },
      "id": "node/582763319"
    },
    {
      "type": "Feature",
      "properties": {
        "@id": "node/582763575",
        "ele": "1340",
        "hiking": "yes",
        "information": "guidepost",
        "name": "L'Emeindras du Dessous",
        "tourism": "information"
      },
      "geometry": {
        "type": "Point",
        "coordinates": [
          5.8024129,
          45.2827475
        ]
      },
      "id": "node/582763575"
    },
    {
      "type": "Feature",
      "properties": {
        "@id": "node/582763722",
        "ele": "1420",
        "hiking": "yes",
        "information": "guidepost",
        "name": "L'Emeindras du Dessus",
        "tourism": "information"
      },
      "geometry": {
        "type": "Point",
        "coordinates": [
          5.8093933,
          45.2815161
        ]
      },
      "id": "node/582763722"
    },
    {
      "type": "Feature",
      "properties": {
        "@id": "node/655311952",
        "ele": "369",
        "information": "guidepost",
        "name": "La Vierge Noire",
        "tourism": "information"
      },
      "geometry": {
        "type": "Point",
        "coordinates": [
          5.7445732,
          45.2140879
        ]
      },
      "id": "node/655311952"
    },
    {
      "type": "Feature",
      "properties": {
        "@id": "node/655311953",
        "ele": "390",
        "information": "guidepost",
        "name": "Le Gorget",
        "tourism": "information"
      },
      "geometry": {
        "type": "Point",
        "coordinates": [
          5.7462593,
          45.2155695
        ]
      },
      "id": "node/655311953"
    },
    {
      "type": "Feature",
      "properties": {
        "@id": "node/655312089",
        "ele": "600",
        "information": "guidepost",
        "name": "Chantemerle",
        "tourism": "information"
      },
      "geometry": {
        "type": "Point",
        "coordinates": [
          5.7498225,
          45.2236376
        ]
      },
      "id": "node/655312089"
    },
    {
      "type": "Feature",
      "properties": {
        "@id": "node/661544272",
        "ele": "410",
        "information": "guidepost",
        "name": "Les Villaux",
        "source": "cadastre-dgi-fr source : Direction Générale des Impôts - Cadastre ; mise à jour : 2010",
        "tourism": "information"
      },
      "geometry": {
        "type": "Point",
        "coordinates": [
          5.777442,
          45.2254443
        ]
      },
      "id": "node/661544272"
    },
    {
      "type": "Feature",
      "properties": {
        "@id": "node/661605298",
        "ele": "470",
        "information": "guidepost",
        "name": "Rochasson",
        "source": "cadastre-dgi-fr source : Direction Générale des Impôts - Cadastre ; mise à jour : 2010",
        "tourism": "information"
      },
      "geometry": {
        "type": "Point",
        "coordinates": [
          5.7748972,
          45.2269576
        ]
      },
      "id": "node/661605298"
    },
    {
      "type": "Feature",
      "properties": {
        "@id": "node/661739828",
        "ele": "595",
        "information": "guidepost",
        "name": "Batonniere",
        "source": "cadastre-dgi-fr source : Direction Générale des Impôts - Cadastre ; mise à jour : 2010",
        "tourism": "information"
      },
      "geometry": {
        "type": "Point",
        "coordinates": [
          5.7499877,
          45.2250542
        ]
      },
      "id": "node/661739828"
    },
    {
      "type": "Feature",
      "properties": {
        "@id": "node/661739869",
        "ele": "531",
        "information": "guidepost",
        "name": "Tour des Chiens",
        "source": "cadastre-dgi-fr source : Direction Générale des Impôts - Cadastre ; mise à jour : 2010",
        "tourism": "information"
      },
      "geometry": {
        "type": "Point",
        "coordinates": [
          5.7535783,
          45.2245697
        ]
      },
      "id": "node/661739869"
    },
    {
      "type": "Feature",
      "properties": {
        "@id": "node/661739973",
        "ele": "610",
        "information": "guidepost",
        "name": "Les Jaux",
        "source": "cadastre-dgi-fr source : Direction Générale des Impôts - Cadastre ; mise à jour : 2010",
        "tourism": "information"
      },
      "geometry": {
        "type": "Point",
        "coordinates": [
          5.7641195,
          45.2251524
        ]
      },
      "id": "node/661739973"
    },
    {
      "type": "Feature",
      "properties": {
        "@id": "node/661740023",
        "ele": "471",
        "information": "guidepost",
        "name": "Fort du Bourcet",
        "source": "cadastre-dgi-fr source : Direction Générale des Impôts - Cadastre ; mise à jour : 2010",
        "tourism": "information"
      },
      "geometry": {
        "type": "Point",
        "coordinates": [
          5.7716817,
          45.2248688
        ]
      },
      "id": "node/661740023"
    },
    {
      "type": "Feature",
      "properties": {
        "@id": "node/717612914",
        "ele": "550",
        "hiking": "yes",
        "information": "guidepost",
        "name": "Col du Gourlu",
        "tourism": "information"
      },
      "geometry": {
        "type": "Point",
        "coordinates": [
          5.7877932,
          45.1632967
        ]
      },
      "id": "node/717612914"
    },
    {
      "type": "Feature",
      "properties": {
        "@id": "node/732707368",
        "ele": "510",
        "hiking": "yes",
        "information": "guidepost",
        "name": "Bois de Pisalis",
        "note": "panneau manquant, ne reste que le poteau (02/07/2023)",
        "tourism": "information"
      },
      "geometry": {
        "type": "Point",
        "coordinates": [
          5.7756675,
          45.1596518
        ]
      },
      "id": "node/732707368"
    },
    {
      "type": "Feature",
      "properties": {
        "@id": "node/732707379",
        "ele": "285",
        "hiking": "yes",
        "information": "guidepost",
        "name": "Les Anguisses",
        "tourism": "information"
      },
      "geometry": {
        "type": "Point",
        "coordinates": [
          5.7748256,
          45.1744341
        ]
      },
      "id": "node/732707379"
    },
    {
      "type": "Feature",
      "properties": {
        "@id": "node/732707388",
        "hiking": "yes",
        "information": "guidepost",
        "tourism": "information"
      },
      "geometry": {
        "type": "Point",
        "coordinates": [
          5.7752311,
          45.1746286
        ]
      },
      "id": "node/732707388"
    },
    {
      "type": "Feature",
      "properties": {
        "@id": "node/732707413",
        "ele": "420",
        "hiking": "yes",
        "information": "guidepost",
        "name": "Les Collodes",
        "tourism": "information"
      },
      "geometry": {
        "type": "Point",
        "coordinates": [
          5.7788182,
          45.1698171
        ]
      },
      "id": "node/732707413"
    },
    {
      "type": "Feature",
      "properties": {
        "@id": "node/736921165",
        "hiking": "yes",
        "information": "guidepost",
        "source": "RTK GNSS",
        "tourism": "information"
      },
      "geometry": {
        "type": "Point",
        "coordinates": [
          5.7863747,
          45.1680089
        ]
      },
      "id": "node/736921165"
    },
    {
      "type": "Feature",
      "properties": {
        "@id": "node/736921189",
        "ele": "570",
        "hiking": "yes",
        "information": "guidepost",
        "name": "Romage le haut",
        "tourism": "information"
      },
      "geometry": {
        "type": "Point",
        "coordinates": [
          5.778547,
          45.1489156
        ]
      },
      "id": "node/736921189"
    },
    {
      "type": "Feature",
      "properties": {
        "@id": "node/736921193",
        "ele": "450",
        "information": "guidepost",
        "name": "Les Verdelettes",
        "source": "RTK GNSS",
        "tourism": "information"
      },
      "geometry": {
        "type": "Point",
        "coordinates": [
          5.7681176,
          45.1493754
        ]
      },
      "id": "node/736921193"
    },
    {
      "type": "Feature",
      "properties": {
        "@id": "node/736921215",
        "ele": "730",
        "hiking": "yes",
        "information": "guidepost",
        "name": "Champ Michel",
        "tourism": "information"
      },
      "geometry": {
        "type": "Point",
        "coordinates": [
          5.7864555,
          45.1549165
        ]
      },
      "id": "node/736921215"
    },
    {
      "type": "Feature",
      "properties": {
        "@id": "node/736921218",
        "ele": "560",
        "hiking": "yes",
        "information": "guidepost",
        "name": "Romage",
        "tourism": "information"
      },
      "geometry": {
        "type": "Point",
        "coordinates": [
          5.7768542,
          45.1493643
        ]
      },
      "id": "node/736921218"
    },
    {
      "type": "Feature",
      "properties": {
        "@id": "node/736921234",
        "ele": "800",
        "hiking": "yes",
        "information": "guidepost",
        "name": "Montagne du Mulet",
        "tourism": "information"
      },
      "geometry": {
        "type": "Point",
        "coordinates": [
          5.790852,
          45.1548398
        ]
      },
      "id": "node/736921234"
    },
    {
      "type": "Feature",
      "properties": {
        "@id": "node/736921259",
        "hiking": "yes",
        "information": "guidepost",
        "name": "Romage",
        "tourism": "information"
      },
      "geometry": {
        "type": "Point",
        "coordinates": [
          5.7765766,
          45.1489509
        ]
      },
      "id": "node/736921259"
    },
    {
      "type": "Feature",
      "properties": {
        "@id": "node/736921269",
        "ele": "800",
        "hiking": "yes",
        "information": "guidepost",
        "name": "Montagne du Mulet",
        "tourism": "information"
      },
      "geometry": {
        "type": "Point",
        "coordinates": [
          5.790644,
          45.154627
        ]
      },
      "id": "node/736921269"
    },
    {
      "type": "Feature",
      "properties": {
        "@id": "node/736921271",
        "ele": "620",
        "information": "guidepost",
        "name": "Bois du Fournet",
        "source": "RTK GNSS",
        "tourism": "information"
      },
      "geometry": {
        "type": "Point",
        "coordinates": [
          5.8043991,
          45.1593547
        ]
      },
      "id": "node/736921271"
    },
    {
      "type": "Feature",
      "properties": {
        "@id": "node/739876129",
        "ele": "910",
        "hiking": "yes",
        "information": "guidepost",
        "name": "Mollard",
        "source": "cadastre-dgi-fr source : Direction Générale des Impôts - Cadastre;mise à jour : 2010",
        "tourism": "information"
      },
      "geometry": {
        "type": "Point",
        "coordinates": [
          5.6327393,
          45.1924105
        ]
      },
      "id": "node/739876129"
    },
    {
      "type": "Feature",
      "properties": {
        "@id": "node/739876155",
        "ele": "942",
        "hiking": "yes",
        "information": "guidepost",
        "name": "Plateau Charvet",
        "source": "cadastre-dgi-fr source : Direction Générale des Impôts - Cadastre;mise à jour : 2010",
        "tourism": "information"
      },
      "geometry": {
        "type": "Point",
        "coordinates": [
          5.6347014,
          45.1931681
        ]
      },
      "id": "node/739876155"
    },
    {
      "type": "Feature",
      "properties": {
        "@id": "node/762684795",
        "ele": "218",
        "hiking": "yes",
        "information": "guidepost",
        "name": "Pied de Gières",
        "tourism": "information"
      },
      "geometry": {
        "type": "Point",
        "coordinates": [
          5.7977749,
          45.183436
        ]
      },
      "id": "node/762684795"
    },
    {
      "type": "Feature",
      "properties": {
        "@id": "node/762684805",
        "ele": "217",
        "hiking": "yes",
        "information": "guidepost",
        "name": "Ferme du Moiron",
        "tourism": "information"
      },
      "geometry": {
        "type": "Point",
        "coordinates": [
          5.800775,
          45.1870317
        ]
      },
      "id": "node/762684805"
    },
    {
      "type": "Feature",
      "properties": {
        "@id": "node/762684832",
        "ele": "217",
        "hiking": "yes",
        "information": "guidepost",
        "name": "Les Palettes",
        "tourism": "information"
      },
      "geometry": {
        "type": "Point",
        "coordinates": [
          5.8091356,
          45.1866013
        ]
      },
      "id": "node/762684832"
    },
    {
      "type": "Feature",
      "properties": {
        "@id": "node/762684834",
        "ele": "217",
        "hiking": "yes",
        "information": "guidepost",
        "name": "Le Japin",
        "tourism": "information"
      },
      "geometry": {
        "type": "Point",
        "coordinates": [
          5.8073145,
          45.1876927
        ]
      },
      "id": "node/762684834"
    },
    {
      "type": "Feature",
      "properties": {
        "@id": "node/762684839",
        "ele": "217",
        "hiking": "yes",
        "information": "guidepost",
        "name": "Le Marais",
        "tourism": "information"
      },
      "geometry": {
        "type": "Point",
        "coordinates": [
          5.8068052,
          45.1887225
        ]
      },
      "id": "node/762684839"
    },
    {
      "type": "Feature",
      "properties": {
        "@id": "node/762684847",
        "ele": "220",
        "hiking": "yes",
        "information": "guidepost",
        "name": "La Fontaine",
        "tourism": "information"
      },
      "geometry": {
        "type": "Point",
        "coordinates": [
          5.8111877,
          45.1876486
        ]
      },
      "id": "node/762684847"
    },
    {
      "type": "Feature",
      "properties": {
        "@id": "node/762684858",
        "ele": "222",
        "information": "guidepost",
        "name": "Pissevieille",
        "tourism": "information"
      },
      "geometry": {
        "type": "Point",
        "coordinates": [
          5.8120154,
          45.1875018
        ]
      },
      "id": "node/762684858"
    },
    {
      "type": "Feature",
      "properties": {
        "@id": "node/768149967",
        "ele": "425",
        "hiking": "yes",
        "information": "guidepost",
        "name": "Le Murier",
        "tourism": "information"
      },
      "geometry": {
        "type": "Point",
        "coordinates": [
          5.7816162,
          45.1709904
        ]
      },
      "id": "node/768149967"
    },
    {
      "type": "Feature",
      "properties": {
        "@id": "node/768150138",
        "ele": "570",
        "hiking": "yes",
        "information": "guidepost",
        "name": "Les Batteries Hautes",
        "tourism": "information"
      },
      "geometry": {
        "type": "Point",
        "coordinates": [
          5.784833,
          45.1652502
        ]
      },
      "id": "node/768150138"
    },
    {
      "type": "Feature",
      "properties": {
        "@id": "node/768150194",
        "ele": "425",
        "hiking": "yes",
        "information": "guidepost",
        "name": "Le Murier",
        "tourism": "information"
      },
      "geometry": {
        "type": "Point",
        "coordinates": [
          5.7816808,
          45.1711389
        ]
      },
      "id": "node/768150194"
    },
    {
      "type": "Feature",
      "properties": {
        "@id": "node/768150220",
        "ele": "425",
        "hiking": "yes",
        "information": "guidepost",
        "name": "Le Murier",
        "tourism": "information"
      },
      "geometry": {
        "type": "Point",
        "coordinates": [
          5.7819364,
          45.1710147
        ]
      },
      "id": "node/768150220"
    },
    {
      "type": "Feature",
      "properties": {
        "@id": "node/768150332",
        "ele": "215",
        "hiking": "yes",
        "information": "guidepost",
        "name": "La Galochère",
        "source": "differential GPS - F9P",
        "tourism": "information"
      },
      "geometry": {
        "type": "Point",
        "coordinates": [
          5.7750365,
          45.1764938
        ]
      },
      "id": "node/768150332"
    },
    {
      "type": "Feature",
      "properties": {
        "@id": "node/768150409",
        "ele": "530",
        "information": "guidepost",
        "name": "La Croisée",
        "removed:tourism": "information"
      },
      "geometry": {
        "type": "Point",
        "coordinates": [
          5.7837384,
          45.1638577
        ]
      },
      "id": "node/768150409"
    },
    {
      "type": "Feature",
      "properties": {
        "@id": "node/768150430",
        "information": "guidepost",
        "removed:tourism": "information"
      },
      "geometry": {
        "type": "Point",
        "coordinates": [
          5.7839209,
          45.1637527
        ]
      },
      "id": "node/768150430"
    },
    {
      "type": "Feature",
      "properties": {
        "@id": "node/768150486",
        "ele": "435",
        "hiking": "yes",
        "information": "guidepost",
        "name": "Le Fort du Murier",
        "source": "RTK GNSS",
        "tourism": "information"
      },
      "geometry": {
        "type": "Point",
        "coordinates": [
          5.7810943,
          45.1740535
        ]
      },
      "id": "node/768150486"
    },
    {
      "type": "Feature",
      "properties": {
        "@id": "node/778368047",
        "ele": "225",
        "hiking": "yes",
        "information": "guidepost",
        "name": "Saint-Martin d'Hères",
        "tourism": "information"
      },
      "geometry": {
        "type": "Point",
        "coordinates": [
          5.7683298,
          45.1645703
        ]
      },
      "id": "node/778368047"
    },
    {
      "type": "Feature",
      "properties": {
        "@id": "node/778368085",
        "ele": "240",
        "hiking": "yes",
        "information": "guidepost",
        "name": "Chaberte",
        "source": "differential GPS - F9P",
        "tourism": "information"
      },
      "geometry": {
        "type": "Point",
        "coordinates": [
          5.769514,
          45.1645403
        ]
      },
      "id": "node/778368085"
    },
    {
      "type": "Feature",
      "properties": {
        "@id": "node/810093080",
        "ele": "390",
        "information": "guidepost",
        "name": "Morard",
        "tourism": "information"
      },
      "geometry": {
        "type": "Point",
        "coordinates": [
          5.6281447,
          45.2397037
        ]
      },
      "id": "node/810093080"
    },
    {
      "type": "Feature",
      "properties": {
        "@id": "node/810093785",
        "information": "guidepost",
        "tourism": "information"
      },
      "geometry": {
        "type": "Point",
        "coordinates": [
          5.6282967,
          45.240364
        ]
      },
      "id": "node/810093785"
    },
    {
      "type": "Feature",
      "properties": {
        "@id": "node/817688216",
        "information": "guidepost",
        "source": "cadastre-dgi-fr source : Direction Générale des Impôts - Cadastre;mise à jour : 2010",
        "tourism": "information"
      },
      "geometry": {
        "type": "Point",
        "coordinates": [
          5.8243756,
          45.0445553
        ]
      },
      "id": "node/817688216"
    },
    {
      "type": "Feature",
      "properties": {
        "@id": "node/817688317",
        "ele": "480",
        "information": "guidepost",
        "name": "Côte Rousse",
        "source": "cadastre-dgi-fr source : Direction Générale des Impôts - Cadastre ; mise à jour : 2010",
        "tourism": "information"
      },
      "geometry": {
        "type": "Point",
        "coordinates": [
          5.8236854,
          45.04617
        ]
      },
      "id": "node/817688317"
    },
    {
      "type": "Feature",
      "properties": {
        "@id": "node/823472859",
        "ele": "217",
        "hiking": "yes",
        "information": "guidepost",
        "name": "Les Alloves",
        "source": "differential GPS - F9P",
        "tourism": "information"
      },
      "geometry": {
        "type": "Point",
        "coordinates": [
          5.7697358,
          45.1731008
        ]
      },
      "id": "node/823472859"
    },
    {
      "type": "Feature",
      "properties": {
        "@id": "node/831816657",
        "hiking": "yes",
        "information": "guidepost",
        "source": "cadastre-dgi-fr source : Direction Générale des Impôts - Cadastre ; mise à jour : 2010",
        "tourism": "information"
      },
      "geometry": {
        "type": "Point",
        "coordinates": [
          5.6435631,
          45.1707577
        ]
      },
      "id": "node/831816657"
    },
    {
      "type": "Feature",
      "properties": {
        "@id": "node/831816680",
        "ele": "950",
        "information": "guidepost",
        "name": "Blanche-Neige",
        "source": "cadastre-dgi-fr source : Direction Générale des Impôts - Cadastre ; mise à jour : 2010",
        "tourism": "information"
      },
      "geometry": {
        "type": "Point",
        "coordinates": [
          5.6468184,
          45.1706111
        ]
      },
      "id": "node/831816680"
    },
    {
      "type": "Feature",
      "properties": {
        "@id": "node/831816874",
        "ele": "1055",
        "hiking": "yes",
        "information": "guidepost",
        "name": "Sous les Pucelles",
        "source": "cadastre-dgi-fr source : Direction Générale des Impôts - Cadastre ; mise à jour : 2010",
        "tourism": "information"
      },
      "geometry": {
        "type": "Point",
        "coordinates": [
          5.6422068,
          45.1691048
        ]
      },
      "id": "node/831816874"
    },
    {
      "type": "Feature",
      "properties": {
        "@id": "node/831882657",
        "ele": "860",
        "information": "guidepost",
        "name": "Les Pinières",
        "source": "cadastre-dgi-fr source : Direction Générale des Impôts - Cadastre ; mise à jour : 2010",
        "survey:date": "2023-04-10",
        "tourism": "information"
      },
      "geometry": {
        "type": "Point",
        "coordinates": [
          5.6511955,
          45.1700395
        ]
      },
      "id": "node/831882657"
    },
    {
      "type": "Feature",
      "properties": {
        "@id": "node/831933877",
        "ele": "550",
        "hiking": "yes",
        "information": "guidepost",
        "name": "Bel-Air",
        "source": "cadastre-dgi-fr source : Direction Générale des Impôts - Cadastre ; mise à jour : 2010",
        "tourism": "information"
      },
      "geometry": {
        "type": "Point",
        "coordinates": [
          5.6696316,
          45.1676431
        ]
      },
      "id": "node/831933877"
    },
    {
      "type": "Feature",
      "properties": {
        "@id": "node/831933967",
        "ele": "666",
        "hiking": "yes",
        "information": "guidepost",
        "name": "Pariset",
        "source": "cadastre-dgi-fr source : Direction Générale des Impôts - Cadastre ; mise à jour : 2010",
        "tourism": "information"
      },
      "geometry": {
        "type": "Point",
        "coordinates": [
          5.6670239,
          45.1716482
        ]
      },
      "id": "node/831933967"
    },
    {
      "type": "Feature",
      "properties": {
        "@id": "node/831933994",
        "ele": "666",
        "hiking": "yes",
        "information": "guidepost",
        "name": "Pariset",
        "source": "cadastre-dgi-fr source : Direction Générale des Impôts - Cadastre;mise à jour : 2010",
        "tourism": "information"
      },
      "geometry": {
        "type": "Point",
        "coordinates": [
          5.6667,
          45.1715708
        ]
      },
      "id": "node/831933994"
    },
    {
      "type": "Feature",
      "properties": {
        "@id": "node/831947619",
        "ele": "317",
        "hiking": "yes",
        "information": "guidepost",
        "name": "Les Vouillants",
        "source": "cadastre-dgi-fr source : Direction Générale des Impôts - Cadastre ; mise à jour : 2010",
        "tourism": "information"
      },
      "geometry": {
        "type": "Point",
        "coordinates": [
          5.6799754,
          45.1858225
        ]
      },
      "id": "node/831947619"
    },
    {
      "type": "Feature",
      "properties": {
        "@id": "node/831947638",
        "ele": "210",
        "hiking": "yes",
        "information": "guidepost",
        "name": "La Poya",
        "source": "cadastre-dgi-fr source : Direction Générale des Impôts - Cadastre ; mise à jour : 2010",
        "tourism": "information"
      },
      "geometry": {
        "type": "Point",
        "coordinates": [
          5.6678749,
          45.1949423
        ]
      },
      "id": "node/831947638"
    },
    {
      "type": "Feature",
      "properties": {
        "@id": "node/834885362",
        "ele": "1766",
        "hiking": "yes",
        "information": "guidepost",
        "name": "Col Vert",
        "tourism": "information"
      },
      "geometry": {
        "type": "Point",
        "coordinates": [
          5.5971894,
          45.0527701
        ]
      },
      "id": "node/834885362"
    },
    {
      "type": "Feature",
      "properties": {
        "@id": "node/944233993",
        "ele": "352",
        "hiking": "yes",
        "information": "guidepost",
        "name": "Tavernolles",
        "source": "cadastre-dgi-fr source : Direction Générale des Impôts - Cadastre ; mise à jour : 2010",
        "tourism": "information"
      },
      "geometry": {
        "type": "Point",
        "coordinates": [
          5.7705412,
          45.1370578
        ]
      },
      "id": "node/944233993"
    },
    {
      "type": "Feature",
      "properties": {
        "@id": "node/944303097",
        "ele": "345",
        "hiking": "yes",
        "information": "guidepost",
        "name": "La Croix",
        "source": "GPS",
        "tourism": "information"
      },
      "geometry": {
        "type": "Point",
        "coordinates": [
          5.7616406,
          45.1490802
        ]
      },
      "id": "node/944303097"
    },
    {
      "type": "Feature",
      "properties": {
        "@id": "node/944303414",
        "ele": "330",
        "hiking": "yes",
        "information": "guidepost",
        "name": "Le Ruisselet",
        "source": "cadastre-dgi-fr source : Direction Générale des Impôts - Cadastre ; mise à jour : 2010",
        "tourism": "information"
      },
      "geometry": {
        "type": "Point",
        "coordinates": [
          5.7708765,
          45.1431835
        ]
      },
      "id": "node/944303414"
    },
    {
      "type": "Feature",
      "properties": {
        "@id": "node/944323294",
        "ele": "270",
        "hiking": "yes",
        "information": "guidepost",
        "name": "Bel-Air",
        "tourism": "information"
      },
      "geometry": {
        "type": "Point",
        "coordinates": [
          5.7620281,
          45.1538022
        ]
      },
      "id": "node/944323294"
    },
    {
      "type": "Feature",
      "properties": {
        "@id": "node/944342386",
        "ele": "260",
        "hiking": "yes",
        "information": "guidepost",
        "name": "Parc H. Dubedout",
        "source": "cadastre-dgi-fr source : Direction Générale des Impôts - Cadastre ; mise à jour : 2010",
        "tourism": "information"
      },
      "geometry": {
        "type": "Point",
        "coordinates": [
          5.7643338,
          45.1557835
        ]
      },
      "id": "node/944342386"
    },
    {
      "type": "Feature",
      "properties": {
        "@id": "node/944342390",
        "ele": "230",
        "hiking": "yes",
        "information": "guidepost",
        "name": "Prémol",
        "source": "cadastre-dgi-fr source : Direction Générale des Impôts - Cadastre ; mise à jour : 2010",
        "tourism": "information"
      },
      "geometry": {
        "type": "Point",
        "coordinates": [
          5.7633873,
          45.1574442
        ]
      },
      "id": "node/944342390"
    },
    {
      "type": "Feature",
      "properties": {
        "@id": "node/956204369",
        "ele": "1195",
        "hiking": "yes",
        "information": "guidepost",
        "mtb": "yes",
        "name": "Le bois du pont",
        "tourism": "information"
      },
      "geometry": {
        "type": "Point",
        "coordinates": [
          5.8018495,
          45.0262075
        ]
      },
      "id": "node/956204369"
    },
    {
      "type": "Feature",
      "properties": {
        "@id": "node/979514108",
        "ele": "227",
        "hiking": "yes",
        "information": "guidepost",
        "mapillary": "425807772577270",
        "name": "Laussy",
        "source": "cadastre-dgi-fr source : Direction Générale des Impôts - Cadastre ; mise à jour : 2010",
        "tourism": "information"
      },
      "geometry": {
        "type": "Point",
        "coordinates": [
          5.7933437,
          45.1812104
        ]
      },
      "id": "node/979514108"
    },
    {
      "type": "Feature",
      "properties": {
        "@id": "node/979514406",
        "ele": "500",
        "information": "guidepost",
        "name": "Venon La Chappe",
        "source": "cadastre-dgi-fr source : Direction Générale des Impôts - Cadastre ; mise à jour : 2010",
        "tourism": "information"
      },
      "geometry": {
        "type": "Point",
        "coordinates": [
          5.8047555,
          45.171794
        ]
      },
      "id": "node/979514406"
    },
    {
      "type": "Feature",
      "properties": {
        "@id": "node/979514547",
        "ele": "570",
        "information": "guidepost",
        "name": "Pressembois",
        "source": "cadastre-dgi-fr source : Direction Générale des Impôts - Cadastre ; mise à jour : 2010",
        "tourism": "information"
      },
      "geometry": {
        "type": "Point",
        "coordinates": [
          5.8133099,
          45.1780082
        ]
      },
      "id": "node/979514547"
    },
    {
      "type": "Feature",
      "properties": {
        "@id": "node/979514608",
        "ele": "350",
        "information": "guidepost",
        "mapillary": "358672799398363",
        "name": "Pied de Venon",
        "note": "Pas de nom",
        "source": "GPS",
        "tourism": "information"
      },
      "geometry": {
        "type": "Point",
        "coordinates": [
          5.79251,
          45.1765428
        ]
      },
      "id": "node/979514608"
    },
    {
      "type": "Feature",
      "properties": {
        "@id": "node/979514868",
        "information": "guidepost",
        "source": "cadastre-dgi-fr source : Direction Générale des Impôts - Cadastre ; mise à jour : 2010",
        "tourism": "information"
      },
      "geometry": {
        "type": "Point",
        "coordinates": [
          5.8015614,
          45.178271
        ]
      },
      "id": "node/979514868"
    },
    {
      "type": "Feature",
      "properties": {
        "@id": "node/979515131",
        "ele": "370",
        "information": "guidepost",
        "mapillary": "898798647429467",
        "name": "La Faurie",
        "source": "RTK GNSS",
        "tourism": "information"
      },
      "geometry": {
        "type": "Point",
        "coordinates": [
          5.7944097,
          45.1756307
        ]
      },
      "id": "node/979515131"
    },
    {
      "type": "Feature",
      "properties": {
        "@id": "node/985751571",
        "ele": "224",
        "information": "guidepost",
        "name": "Pasteur",
        "source": "cadastre-dgi-fr source : Direction Générale des Impôts - Cadastre ; mise à jour : 2010",
        "tourism": "information"
      },
      "geometry": {
        "type": "Point",
        "coordinates": [
          5.7911097,
          45.183594
        ]
      },
      "id": "node/985751571"
    },
    {
      "type": "Feature",
      "properties": {
        "@id": "node/985751732",
        "information": "guidepost",
        "source": "cadastre-dgi-fr source : Direction Générale des Impôts - Cadastre ; mise à jour : 2010",
        "tourism": "information"
      },
      "geometry": {
        "type": "Point",
        "coordinates": [
          5.7900497,
          45.1858401
        ]
      },
      "id": "node/985751732"
    },
    {
      "type": "Feature",
      "properties": {
        "@id": "node/1126322233",
        "ele": "1193",
        "information": "guidepost",
        "name": "Font Froide",
        "source": "cadastre-dgi-fr source : Direction Générale des Impôts - Cadastre. Mise à jour : 2009",
        "tourism": "information"
      },
      "geometry": {
        "type": "Point",
        "coordinates": [
          5.7289983,
          45.0098495
        ]
      },
      "id": "node/1126322233"
    },
    {
      "type": "Feature",
      "properties": {
        "@id": "node/1129317311",
        "ele": "1206",
        "expected_lwn_route_relations": "2",
        "information": "guidepost",
        "lwn_name": "Pravet",
        "name": "Pravet",
        "network:type": "node_network",
        "tourism": "information"
      },
      "geometry": {
        "type": "Point",
        "coordinates": [
          5.734906,
          45.0402049
        ]
      },
      "id": "node/1129317311"
    },
    {
      "type": "Feature",
      "properties": {
        "@id": "node/1141105051",
        "hiking": "yes",
        "information": "guidepost",
        "tourism": "information"
      },
      "geometry": {
        "type": "Point",
        "coordinates": [
          5.8003435,
          45.1762663
        ]
      },
      "id": "node/1141105051"
    },
    {
      "type": "Feature",
      "properties": {
        "@id": "node/1149352086",
        "ele": "217",
        "hiking": "yes",
        "information": "guidepost",
        "name": "Le Japin",
        "source": "cadastre-dgi-fr source : Direction Générale des Impôts - Cadastre ; mise à jour : 2011",
        "tourism": "information"
      },
      "geometry": {
        "type": "Point",
        "coordinates": [
          5.8074236,
          45.1874767
        ]
      },
      "id": "node/1149352086"
    },
    {
      "type": "Feature",
      "properties": {
        "@id": "node/1149352470",
        "ele": "226",
        "hiking": "yes",
        "information": "guidepost",
        "name": "République",
        "source": "cadastre-dgi-fr source : Direction Générale des Impôts - Cadastre ; mise à jour : 2011",
        "survey:date": "2022-09-11",
        "tourism": "information"
      },
      "geometry": {
        "type": "Point",
        "coordinates": [
          5.7924099,
          45.1819546
        ]
      },
      "id": "node/1149352470"
    },
    {
      "type": "Feature",
      "properties": {
        "@id": "node/1150618311",
        "disused:tourism": "information",
        "ele": "551",
        "fixme": "ce poteau n'existe plus le 30/05/20020",
        "information": "guidepost",
        "name": "Champ Ruti",
        "source": "cadastre-dgi-fr source : Direction Générale des Impôts - Cadastre ; mise à jour :2011"
      },
      "geometry": {
        "type": "Point",
        "coordinates": [
          5.8185806,
          45.1650863
        ]
      },
      "id": "node/1150618311"
    },
    {
      "type": "Feature",
      "properties": {
        "@id": "node/1150618329",
        "ele": "661",
        "hiking": "yes",
        "information": "guidepost",
        "mtb": "yes",
        "name": "Champ de l'Église",
        "source": "RTK GNSS",
        "tourism": "information"
      },
      "geometry": {
        "type": "Point",
        "coordinates": [
          5.8303272,
          45.1677802
        ]
      },
      "id": "node/1150618329"
    },
    {
      "type": "Feature",
      "properties": {
        "@id": "node/1150618387",
        "ele": "690",
        "hiking": "yes",
        "information": "guidepost",
        "name": "Les Cochettes",
        "source": "RTK GNSS",
        "tourism": "information"
      },
      "geometry": {
        "type": "Point",
        "coordinates": [
          5.8206087,
          45.1707439
        ]
      },
      "id": "node/1150618387"
    },
    {
      "type": "Feature",
      "properties": {
        "@id": "node/1153335949",
        "ele": "1269",
        "hiking": "yes",
        "information": "guidepost",
        "name": "Col de Soliet",
        "tourism": "information"
      },
      "geometry": {
        "type": "Point",
        "coordinates": [
          5.5880155,
          44.9715703
        ]
      },
      "id": "node/1153335949"
    },
    {
      "type": "Feature",
      "properties": {
        "@id": "node/1153336045",
        "ele": "920",
        "hiking": "yes",
        "information": "guidepost",
        "name": "Le Vernay",
        "tourism": "information"
      },
      "geometry": {
        "type": "Point",
        "coordinates": [
          5.6082226,
          44.9715627
        ]
      },
      "id": "node/1153336045"
    },
    {
      "type": "Feature",
      "properties": {
        "@id": "node/1153373518",
        "ele": "704",
        "hiking": "yes",
        "information": "guidepost",
        "name": "Les Clots",
        "tourism": "information"
      },
      "geometry": {
        "type": "Point",
        "coordinates": [
          5.6216035,
          44.9918751
        ]
      },
      "id": "node/1153373518"
    },
    {
      "type": "Feature",
      "properties": {
        "@id": "node/1166294451",
        "ele": "500",
        "hiking": "yes",
        "information": "guidepost",
        "name": "Pré Bousson",
        "source": "cadastre-dgi-fr source : Direction Générale des Impôts - Cadastre;mise à jour :2011",
        "tourism": "information"
      },
      "geometry": {
        "type": "Point",
        "coordinates": [
          5.8051817,
          45.1707699
        ]
      },
      "id": "node/1166294451"
    },
    {
      "type": "Feature",
      "properties": {
        "@id": "node/1201815655",
        "ele": "230",
        "hiking": "yes",
        "information": "guidepost",
        "mtb": "yes",
        "name": "Les Glaires",
        "source": "survey",
        "survey:date": "2022-12-08",
        "tourism": "information"
      },
      "geometry": {
        "type": "Point",
        "coordinates": [
          5.7264352,
          45.1425774
        ]
      },
      "id": "node/1201815655"
    },
    {
      "type": "Feature",
      "properties": {
        "@id": "node/1213562236",
        "ele": "347",
        "hiking": "yes",
        "information": "guidepost",
        "name": "Les Mailles",
        "source": "Mon GPX + cadastre-dgi-fr source : Direction Générale des Impôts - Cadastre ; mise à jour :2011",
        "tourism": "information"
      },
      "geometry": {
        "type": "Point",
        "coordinates": [
          5.8049255,
          45.0994368
        ]
      },
      "id": "node/1213562236"
    },
    {
      "type": "Feature",
      "properties": {
        "@id": "node/1213562244",
        "ele": "325",
        "fixme": "Check the name is correct, in OpenData it is \"les Meynards\"",
        "information": "guidepost",
        "name": "Meynard",
        "source": "Mon GPX + cadastre-dgi-fr source : Direction Générale des Impôts - Cadastre;mise à jour :2011",
        "tourism": "information"
      },
      "geometry": {
        "type": "Point",
        "coordinates": [
          5.8059047,
          45.1056759
        ]
      },
      "id": "node/1213562244"
    },
    {
      "type": "Feature",
      "properties": {
        "@id": "node/1213562247",
        "ele": "325",
        "hiking": "yes",
        "information": "guidepost",
        "name": "Vaulnaveys",
        "source": "Mon GPX + cadastre-dgi-fr source : Direction Générale des Impôts - Cadastre;mise à jour :2011",
        "tourism": "information"
      },
      "geometry": {
        "type": "Point",
        "coordinates": [
          5.8038905,
          45.1034909
        ]
      },
      "id": "node/1213562247"
    },
    {
      "type": "Feature",
      "properties": {
        "@id": "node/1215943806",
        "ele": "285",
        "information": "guidepost",
        "name": "Bois Godard",
        "tourism": "information"
      },
      "geometry": {
        "type": "Point",
        "coordinates": [
          5.7646867,
          45.0769212
        ]
      },
      "id": "node/1215943806"
    },
    {
      "type": "Feature",
      "properties": {
        "@id": "node/1215967729",
        "bicycle": "no",
        "ele": "416",
        "hiking": "yes",
        "horse": "yes",
        "information": "guidepost",
        "mtb": "yes",
        "name": "Le Golf",
        "source": "Visu et cadastre-dgi-fr source : Direction Générale des Impôts - Cadastre ; mise à jour :2011",
        "tourism": "information"
      },
      "geometry": {
        "type": "Point",
        "coordinates": [
          5.8187552,
          45.1316271
        ]
      },
      "id": "node/1215967729"
    },
    {
      "type": "Feature",
      "properties": {
        "@id": "node/1221301502",
        "bicycle": "yes",
        "hiking": "yes",
        "information": "guidepost",
        "mtb": "yes",
        "source": "cadastre-dgi-fr source : Direction Générale des Impôts - Cadastre ; mise à jour :2011",
        "tourism": "information"
      },
      "geometry": {
        "type": "Point",
        "coordinates": [
          5.8175873,
          45.1074189
        ]
      },
      "id": "node/1221301502"
    },
    {
      "type": "Feature",
      "properties": {
        "@id": "node/1221301624",
        "hiking": "yes",
        "information": "guidepost",
        "mtb": "yes",
        "source": "cadastre-dgi-fr source : Direction Générale des Impôts - Cadastre ; mise à jour :2011",
        "tourism": "information"
      },
      "geometry": {
        "type": "Point",
        "coordinates": [
          5.8312184,
          45.1061619
        ]
      },
      "id": "node/1221301624"
    },
    {
      "type": "Feature",
      "properties": {
        "@id": "node/1221301675",
        "hiking": "yes",
        "information": "guidepost",
        "mtb": "yes",
        "source": "cadastre-dgi-fr source : Direction Générale des Impôts - Cadastre ; mise à jour :2011",
        "tourism": "information"
      },
      "geometry": {
        "type": "Point",
        "coordinates": [
          5.8174588,
          45.1075484
        ]
      },
      "id": "node/1221301675"
    },
    {
      "type": "Feature",
      "properties": {
        "@id": "node/1221301691",
        "ele": "770",
        "hiking": "yes",
        "information": "guidepost",
        "mtb": "yes",
        "name": "Les Roberts",
        "source": "cadastre-dgi-fr source : Direction Générale des Impôts - Cadastre ; mise à jour :2011",
        "tourism": "information"
      },
      "geometry": {
        "type": "Point",
        "coordinates": [
          5.8311546,
          45.1057414
        ]
      },
      "id": "node/1221301691"
    },
    {
      "type": "Feature",
      "properties": {
        "@id": "node/1221301731",
        "ele": "918",
        "information": "guidepost",
        "name": "Montchaffrey",
        "source": "cadastre-dgi-fr source : Direction Générale des Impôts - Cadastre ; mise à jour :2011",
        "tourism": "information"
      },
      "geometry": {
        "type": "Point",
        "coordinates": [
          5.8254528,
          45.1006542
        ]
      },
      "id": "node/1221301731"
    },
    {
      "type": "Feature",
      "properties": {
        "@id": "node/1229609267",
        "ele": "700",
        "hiking": "yes",
        "information": "guidepost",
        "mtb": "yes",
        "name": "Petey",
        "source": "Mon GPX + cadastre-dgi-fr source : Direction Générale des Impôts - Cadastre;mise à jour :2011",
        "tourism": "information"
      },
      "geometry": {
        "type": "Point",
        "coordinates": [
          5.8110764,
          45.0912305
        ]
      },
      "id": "node/1229609267"
    },
    {
      "type": "Feature",
      "properties": {
        "@id": "node/1229609289",
        "ele": "700",
        "hiking": "yes",
        "information": "guidepost",
        "mtb": "yes",
        "name": "Chachatier",
        "source": "Mon GPX + cadastre-dgi-fr source : Direction Générale des Impôts - Cadastre;mise à jour :2011",
        "tourism": "information"
      },
      "geometry": {
        "type": "Point",
        "coordinates": [
          5.8097666,
          45.0905135
        ]
      },
      "id": "node/1229609289"
    },
    {
      "type": "Feature",
      "properties": {
        "@id": "node/1229609559",
        "ele": "730",
        "hiking": "yes",
        "information": "guidepost",
        "mtb": "yes",
        "name": "Courbière",
        "source": "Mon GPX + cadastre-dgi-fr source : Direction Générale des Impôts - Cadastre;mise à jour :2011",
        "tourism": "information"
      },
      "geometry": {
        "type": "Point",
        "coordinates": [
          5.8076162,
          45.088316
        ]
      },
      "id": "node/1229609559"
    },
    {
      "type": "Feature",
      "properties": {
        "@id": "node/1229609663",
        "ele": "336",
        "hiking": "yes",
        "information": "guidepost",
        "mtb": "yes",
        "name": "Les Girouds",
        "source": "Mon GPX + cadastre-dgi-fr source : Direction Générale des Impôts - Cadastre;mise à jour :2011",
        "tourism": "information"
      },
      "geometry": {
        "type": "Point",
        "coordinates": [
          5.8030898,
          45.0971295
        ]
      },
      "id": "node/1229609663"
    },
    {
      "type": "Feature",
      "properties": {
        "@id": "node/1229609712",
        "ele": "335",
        "hiking": "yes",
        "information": "guidepost",
        "mtb": "yes",
        "name": "Le Plâtre",
        "source": "Mon GPX + cadastre-dgi-fr source : Direction Générale des Impôts - Cadastre;mise à jour :2011",
        "tourism": "information"
      },
      "geometry": {
        "type": "Point",
        "coordinates": [
          5.7983997,
          45.0918856
        ]
      },
      "id": "node/1229609712"
    },
    {
      "type": "Feature",
      "properties": {
        "@id": "node/1231107767",
        "ele": "268",
        "information": "guidepost",
        "name": "Berglionnières",
        "source": "cadastre-dgi-fr source : Direction Générale des Impôts - Cadastre ; mise à jour : 2011",
        "tourism": "information"
      },
      "geometry": {
        "type": "Point",
        "coordinates": [
          5.6912567,
          45.0911321
        ]
      },
      "id": "node/1231107767"
    },
    {
      "type": "Feature",
      "properties": {
        "@id": "node/1231205650",
        "ele": "265",
        "hiking": "yes",
        "information": "guidepost",
        "name": "Plaine de Rochefort",
        "source": "cadastre-dgi-fr source : Direction Générale des Impôts - Cadastre ; mise à jour : 2011",
        "tourism": "information"
      },
      "geometry": {
        "type": "Point",
        "coordinates": [
          5.6928617,
          45.0930479
        ]
      },
      "id": "node/1231205650"
    },
    {
      "type": "Feature",
      "properties": {
        "@id": "node/1236982378",
        "ele": "360",
        "hiking": "yes",
        "information": "guidepost",
        "mapillary": "582172099422182",
        "mtb": "yes",
        "name": "Les Barontes",
        "source": "mon GPX + cadastre-dgi-fr source : Direction Générale des Impôts - Cadastre;mise à jour :2011",
        "tourism": "information"
      },
      "geometry": {
        "type": "Point",
        "coordinates": [
          5.7902807,
          45.0790124
        ]
      },
      "id": "node/1236982378"
    },
    {
      "type": "Feature",
      "properties": {
        "@id": "node/1236982379",
        "ele": "330",
        "hiking": "yes",
        "information": "guidepost",
        "mtb": "yes",
        "name": "Le Mas",
        "source": "mon GPX + cadastre-dgi-fr source : Direction Générale des Impôts - Cadastre;mise à jour :2011",
        "tourism": "information"
      },
      "geometry": {
        "type": "Point",
        "coordinates": [
          5.7918529,
          45.0854354
        ]
      },
      "id": "node/1236982379"
    },
    {
      "type": "Feature",
      "properties": {
        "@id": "node/1236982396",
        "bicycle": "no",
        "ele": "360",
        "hiking": "yes",
        "information": "guidepost",
        "mtb": "yes",
        "name": "Les Corniers",
        "source": "mon GPX + cadastre-dgi-fr source : Direction Générale des Impôts - Cadastre;mise à jour :2011",
        "tourism": "information"
      },
      "geometry": {
        "type": "Point",
        "coordinates": [
          5.7881738,
          45.0804924
        ]
      },
      "id": "node/1236982396"
    },
    {
      "type": "Feature",
      "properties": {
        "@id": "node/1277657257",
        "ele": "1330",
        "hiking": "yes",
        "information": "guidepost",
        "name": "Pré du Plat",
        "tourism": "information"
      },
      "geometry": {
        "type": "Point",
        "coordinates": [
          5.7847794,
          45.2479131
        ]
      },
      "id": "node/1277657257"
    },
    {
      "type": "Feature",
      "properties": {
        "@id": "node/1277657276",
        "ele": "1305",
        "information": "guidepost",
        "name": "Anciennes Batteries",
        "tourism": "information"
      },
      "geometry": {
        "type": "Point",
        "coordinates": [
          5.7678618,
          45.2360308
        ]
      },
      "id": "node/1277657276"
    },
    {
      "type": "Feature",
      "properties": {
        "@id": "node/1277657405",
        "ele": "1003",
        "information": "guidepost",
        "name": "La Faurie",
        "tourism": "information"
      },
      "geometry": {
        "type": "Point",
        "coordinates": [
          5.7751533,
          45.2520343
        ]
      },
      "id": "node/1277657405"
    },
    {
      "type": "Feature",
      "properties": {
        "@id": "node/1277657431",
        "ele": "1290",
        "hiking": "yes",
        "information": "guidepost",
        "name": "Pas Guiguet",
        "tourism": "information"
      },
      "geometry": {
        "type": "Point",
        "coordinates": [
          5.771851,
          45.2378218
        ]
      },
      "id": "node/1277657431"
    },
    {
      "type": "Feature",
      "properties": {
        "@id": "node/1277657638",
        "ele": "1000",
        "hiking": "yes",
        "information": "guidepost",
        "name": "Fontenettes",
        "tourism": "information"
      },
      "geometry": {
        "type": "Point",
        "coordinates": [
          5.7812081,
          45.2570965
        ]
      },
      "id": "node/1277657638"
    },
    {
      "type": "Feature",
      "properties": {
        "@id": "node/1277658179",
        "ele": "1080",
        "hiking": "yes",
        "information": "guidepost",
        "tourism": "information"
      },
      "geometry": {
        "type": "Point",
        "coordinates": [
          5.7804293,
          45.2549003
        ]
      },
      "id": "node/1277658179"
    },
    {
      "type": "Feature",
      "properties": {
        "@id": "node/1303863945",
        "ele": "315",
        "information": "guidepost",
        "name": "Le Breuil",
        "tourism": "information"
      },
      "geometry": {
        "type": "Point",
        "coordinates": [
          5.6676083,
          45.0565613
        ]
      },
      "id": "node/1303863945"
    },
    {
      "type": "Feature",
      "properties": {
        "@id": "node/1303896947",
        "information": "guidepost",
        "tourism": "information"
      },
      "geometry": {
        "type": "Point",
        "coordinates": [
          5.6928174,
          45.0930775
        ]
      },
      "id": "node/1303896947"
    },
    {
      "type": "Feature",
      "properties": {
        "@id": "node/1303896950",
        "ele": "270",
        "hiking": "yes",
        "information": "guidepost",
        "name": "La Gresse",
        "tourism": "information"
      },
      "geometry": {
        "type": "Point",
        "coordinates": [
          5.6871258,
          45.0844112
        ]
      },
      "id": "node/1303896950"
    },
    {
      "type": "Feature",
      "properties": {
        "@id": "node/1303896961",
        "ele": "268",
        "information": "guidepost",
        "name": "Berglionnières",
        "source": "cadastre-dgi-fr source : Direction Générale des Impôts - Cadastre ; mise à jour : 2011",
        "tourism": "information"
      },
      "geometry": {
        "type": "Point",
        "coordinates": [
          5.6911472,
          45.091125
        ]
      },
      "id": "node/1303896961"
    },
    {
      "type": "Feature",
      "properties": {
        "@id": "node/1303907725",
        "ele": "350",
        "information": "guidepost",
        "name": "Pont des Saillants",
        "source": "cadastre-dgi-fr source : Direction Générale des Impôts - Cadastre ; mise à jour : 2011",
        "tourism": "information"
      },
      "geometry": {
        "type": "Point",
        "coordinates": [
          5.6497976,
          45.0282
        ]
      },
      "id": "node/1303907725"
    },
    {
      "type": "Feature",
      "properties": {
        "@id": "node/1303907748",
        "ele": "350",
        "information": "guidepost",
        "name": "Pont des Saillants",
        "source": "cadastre-dgi-fr source : Direction Générale des Impôts - Cadastre ; mise à jour : 2011",
        "tourism": "information"
      },
      "geometry": {
        "type": "Point",
        "coordinates": [
          5.6497163,
          45.0277245
        ]
      },
      "id": "node/1303907748"
    },
    {
      "type": "Feature",
      "properties": {
        "@id": "node/1303907773",
        "ele": "355",
        "information": "guidepost",
        "name": "Le Plantement",
        "source": "cadastre-dgi-fr source : Direction Générale des Impôts - Cadastre ; mise à jour : 2011",
        "tourism": "information"
      },
      "geometry": {
        "type": "Point",
        "coordinates": [
          5.6494333,
          45.0228464
        ]
      },
      "id": "node/1303907773"
    },
    {
      "type": "Feature",
      "properties": {
        "@id": "node/1339381465",
        "information": "guidepost",
        "name": "La Dionne",
        "tourism": "information"
      },
      "geometry": {
        "type": "Point",
        "coordinates": [
          5.6450838,
          45.101268
        ]
      },
      "id": "node/1339381465"
    },
    {
      "type": "Feature",
      "properties": {
        "@id": "node/1356721706",
        "ele": "850",
        "hiking": "yes",
        "information": "guidepost",
        "name": "Combe Curte",
        "source": "GPS",
        "tourism": "information"
      },
      "geometry": {
        "type": "Point",
        "coordinates": [
          5.6420048,
          45.1995622
        ]
      },
      "id": "node/1356721706"
    },
    {
      "type": "Feature",
      "properties": {
        "@id": "node/1356721716",
        "ele": "700",
        "hiking": "yes",
        "information": "guidepost",
        "name": "Fonds Bonnier",
        "source": "GPS",
        "tourism": "information"
      },
      "geometry": {
        "type": "Point",
        "coordinates": [
          5.6386226,
          45.2001166
        ]
      },
      "id": "node/1356721716"
    },
    {
      "type": "Feature",
      "properties": {
        "@id": "node/1356721741",
        "ele": "450",
        "hiking": "yes",
        "information": "guidepost",
        "name": "Les Gorges",
        "tourism": "information"
      },
      "geometry": {
        "type": "Point",
        "coordinates": [
          5.6421952,
          45.2097721
        ]
      },
      "id": "node/1356721741"
    },
    {
      "type": "Feature",
      "properties": {
        "@id": "node/1356721744",
        "ele": "487",
        "hiking": "yes",
        "information": "guidepost",
        "name": "Pont Charvet",
        "source": "GPS",
        "tourism": "information"
      },
      "geometry": {
        "type": "Point",
        "coordinates": [
          5.6421209,
          45.2075524
        ]
      },
      "id": "node/1356721744"
    },
    {
      "type": "Feature",
      "properties": {
        "@id": "node/1356721754",
        "ele": "487",
        "hiking": "yes",
        "information": "guidepost",
        "name": "Pont Charvet",
        "source": "GPS",
        "tourism": "information"
      },
      "geometry": {
        "type": "Point",
        "coordinates": [
          5.6419419,
          45.2076427
        ]
      },
      "id": "node/1356721754"
    },
    {
      "type": "Feature",
      "properties": {
        "@id": "node/1384431125",
        "ele": "1635",
        "hiking": "yes",
        "information": "guidepost",
        "name": "Cabane de Bachasson",
        "tourism": "information"
      },
      "geometry": {
        "type": "Point",
        "coordinates": [
          5.7796099,
          45.2858376
        ]
      },
      "id": "node/1384431125"
    },
    {
      "type": "Feature",
      "properties": {
        "@id": "node/1384431129",
        "ele": "1640",
        "hiking": "yes",
        "information": "guidepost",
        "name": "Pre Boiteux",
        "tourism": "information"
      },
      "geometry": {
        "type": "Point",
        "coordinates": [
          5.781181,
          45.278646
        ]
      },
      "id": "node/1384431129"
    },
    {
      "type": "Feature",
      "properties": {
        "@id": "node/1385358450",
        "information": "guidepost",
        "name": "Lac Luitel",
        "tourism": "information"
      },
      "geometry": {
        "type": "Point",
        "coordinates": [
          5.8475081,
          45.0916138
        ]
      },
      "id": "node/1385358450"
    },
    {
      "type": "Feature",
      "properties": {
        "@id": "node/1397367519",
        "ele": "475",
        "information": "guidepost",
        "mapillary": "650573559723760",
        "name": "Mont Rolland",
        "tourism": "information"
      },
      "geometry": {
        "type": "Point",
        "coordinates": [
          5.7747097,
          45.1146249
        ]
      },
      "id": "node/1397367519"
    },
    {
      "type": "Feature",
      "properties": {
        "@id": "node/1397438740",
        "ele": "378",
        "information": "guidepost",
        "name": "Étang de Haute Jarrie",
        "source": "cadastre-dgi-fr source : Direction Générale des Impôts - Cadastre ; mise à jour : 2011",
        "tourism": "information"
      },
      "geometry": {
        "type": "Point",
        "coordinates": [
          5.7427844,
          45.1203573
        ]
      },
      "id": "node/1397438740"
    },
    {
      "type": "Feature",
      "properties": {
        "@id": "node/1414272799",
        "ele": "267",
        "information": "guidepost",
        "name": "Pont de Champ",
        "tourism": "information"
      },
      "geometry": {
        "type": "Point",
        "coordinates": [
          5.7306615,
          45.0880033
        ]
      },
      "id": "node/1414272799"
    },
    {
      "type": "Feature",
      "properties": {
        "@id": "node/1414272811",
        "ele": "340",
        "information": "guidepost",
        "name": "Les Chaberts",
        "tourism": "information"
      },
      "geometry": {
        "type": "Point",
        "coordinates": [
          5.7550003,
          45.1055237
        ]
      },
      "id": "node/1414272811"
    },
    {
      "type": "Feature",
      "properties": {
        "@id": "node/1414824838",
        "ele": "400",
        "information": "guidepost",
        "name": "Les Grandes Carrières",
        "tourism": "information"
      },
      "geometry": {
        "type": "Point",
        "coordinates": [
          5.7434243,
          45.0789548
        ]
      },
      "id": "node/1414824838"
    },
    {
      "type": "Feature",
      "properties": {
        "@id": "node/1414824858",
        "ele": "380",
        "information": "guidepost",
        "name": "Fourche des Coteaux",
        "tourism": "information"
      },
      "geometry": {
        "type": "Point",
        "coordinates": [
          5.7400032,
          45.0792113
        ]
      },
      "id": "node/1414824858"
    },
    {
      "type": "Feature",
      "properties": {
        "@id": "node/1414824862",
        "ele": "370",
        "information": "guidepost",
        "name": "Le Sert",
        "tourism": "information"
      },
      "geometry": {
        "type": "Point",
        "coordinates": [
          5.7387286,
          45.0786654
        ]
      },
      "id": "node/1414824862"
    },
    {
      "type": "Feature",
      "properties": {
        "@id": "node/1414824866",
        "ele": "269",
        "information": "guidepost",
        "name": "La Poste",
        "tourism": "information"
      },
      "geometry": {
        "type": "Point",
        "coordinates": [
          5.736957,
          45.0799485
        ]
      },
      "id": "node/1414824866"
    },
    {
      "type": "Feature",
      "properties": {
        "@id": "node/1415219273",
        "ele": "350",
        "information": "guidepost",
        "name": "Le Cotanon",
        "tourism": "information"
      },
      "geometry": {
        "type": "Point",
        "coordinates": [
          5.7349285,
          45.0703756
        ]
      },
      "id": "node/1415219273"
    },
    {
      "type": "Feature",
      "properties": {
        "@id": "node/1415276771",
        "ele": "320",
        "information": "guidepost",
        "name": "Champ/D Village",
        "tourism": "information"
      },
      "geometry": {
        "type": "Point",
        "coordinates": [
          5.7320313,
          45.0690244
        ]
      },
      "id": "node/1415276771"
    },
    {
      "type": "Feature",
      "properties": {
        "@id": "node/1417352918",
        "ele": "1310",
        "information": "guidepost",
        "name": "Fort du Saint-Eynard",
        "tourism": "information"
      },
      "geometry": {
        "type": "Point",
        "coordinates": [
          5.7644291,
          45.235056
        ]
      },
      "id": "node/1417352918"
    },
    {
      "type": "Feature",
      "properties": {
        "@id": "node/1418953601",
        "ele": "273",
        "information": "guidepost",
        "name": "Le Plan d'eau",
        "tourism": "information"
      },
      "geometry": {
        "type": "Point",
        "coordinates": [
          5.7297935,
          45.0739184
        ]
      },
      "id": "node/1418953601"
    },
    {
      "type": "Feature",
      "properties": {
        "@id": "node/1425468759",
        "information": "guidepost",
        "tourism": "information"
      },
      "geometry": {
        "type": "Point",
        "coordinates": [
          5.7317651,
          45.0693193
        ]
      },
      "id": "node/1425468759"
    },
    {
      "type": "Feature",
      "properties": {
        "@id": "node/1425468763",
        "ele": "320",
        "information": "guidepost",
        "name": "Chapelle St Blaise",
        "tourism": "information"
      },
      "geometry": {
        "type": "Point",
        "coordinates": [
          5.7319907,
          45.0710727
        ]
      },
      "id": "node/1425468763"
    },
    {
      "type": "Feature",
      "properties": {
        "@id": "node/1426129693",
        "information": "guidepost",
        "tourism": "information"
      },
      "geometry": {
        "type": "Point",
        "coordinates": [
          5.7321859,
          45.0684746
        ]
      },
      "id": "node/1426129693"
    },
    {
      "type": "Feature",
      "properties": {
        "@id": "node/1426130326",
        "ele": "320",
        "information": "guidepost",
        "name": "Châtaignier",
        "tourism": "information"
      },
      "geometry": {
        "type": "Point",
        "coordinates": [
          5.7323093,
          45.068535
        ]
      },
      "id": "node/1426130326"
    },
    {
      "type": "Feature",
      "properties": {
        "@id": "node/1426130581",
        "ele": "330",
        "information": "guidepost",
        "name": "Saint-Michel du Connexe",
        "tourism": "information"
      },
      "geometry": {
        "type": "Point",
        "coordinates": [
          5.7328297,
          45.0681753
        ]
      },
      "id": "node/1426130581"
    },
    {
      "type": "Feature",
      "properties": {
        "@id": "node/1426132424",
        "ele": "340",
        "information": "guidepost",
        "name": "Les Ermes",
        "tourism": "information"
      },
      "geometry": {
        "type": "Point",
        "coordinates": [
          5.7335217,
          45.0680501
        ]
      },
      "id": "node/1426132424"
    },
    {
      "type": "Feature",
      "properties": {
        "@id": "node/1426137700",
        "ele": "420",
        "information": "guidepost",
        "name": "La Grande Boyne",
        "tourism": "information"
      },
      "geometry": {
        "type": "Point",
        "coordinates": [
          5.743446,
          45.0677966
        ]
      },
      "id": "node/1426137700"
    },
    {
      "type": "Feature",
      "properties": {
        "@id": "node/1426143425",
        "ele": "470",
        "information": "guidepost",
        "name": "Saint-Sauveur",
        "tourism": "information"
      },
      "geometry": {
        "type": "Point",
        "coordinates": [
          5.7518672,
          45.068581
        ]
      },
      "id": "node/1426143425"
    },
    {
      "type": "Feature",
      "properties": {
        "@id": "node/1426188145",
        "ele": "345",
        "information": "guidepost",
        "name": "La Combe",
        "tourism": "information"
      },
      "geometry": {
        "type": "Point",
        "coordinates": [
          5.7417699,
          45.0708878
        ]
      },
      "id": "node/1426188145"
    },
    {
      "type": "Feature",
      "properties": {
        "@id": "node/1426195309",
        "ele": "330",
        "information": "guidepost",
        "name": "Pré la Cour",
        "tourism": "information"
      },
      "geometry": {
        "type": "Point",
        "coordinates": [
          5.7353841,
          45.0683875
        ]
      },
      "id": "node/1426195309"
    },
    {
      "type": "Feature",
      "properties": {
        "@id": "node/1426209075",
        "ele": "267",
        "information": "guidepost",
        "name": "Le Boutey",
        "tourism": "information"
      },
      "geometry": {
        "type": "Point",
        "coordinates": [
          5.7255941,
          45.0766722
        ]
      },
      "id": "node/1426209075"
    },
    {
      "type": "Feature",
      "properties": {
        "@id": "node/1427720018",
        "information": "guidepost",
        "tourism": "information"
      },
      "geometry": {
        "type": "Point",
        "coordinates": [
          5.7411821,
          45.0817483
        ]
      },
      "id": "node/1427720018"
    },
    {
      "type": "Feature",
      "properties": {
        "@id": "node/1427720171",
        "ele": "267",
        "information": "guidepost",
        "name": "Jean Navarre",
        "tourism": "information"
      },
      "geometry": {
        "type": "Point",
        "coordinates": [
          5.7301689,
          45.0869677
        ]
      },
      "id": "node/1427720171"
    },
    {
      "type": "Feature",
      "properties": {
        "@id": "node/1427821436",
        "information": "guidepost",
        "tourism": "information"
      },
      "geometry": {
        "type": "Point",
        "coordinates": [
          5.7260143,
          45.0655189
        ]
      },
      "id": "node/1427821436"
    },
    {
      "type": "Feature",
      "properties": {
        "@id": "node/1427832259",
        "information": "guidepost",
        "name": "Notre-Dame-des-Autels",
        "tourism": "information"
      },
      "geometry": {
        "type": "Point",
        "coordinates": [
          5.7144248,
          45.0532705
        ]
      },
      "id": "node/1427832259"
    },
    {
      "type": "Feature",
      "properties": {
        "@id": "node/1428008819",
        "ele": "280",
        "information": "guidepost",
        "name": "Clos Jouvin",
        "tourism": "information"
      },
      "geometry": {
        "type": "Point",
        "coordinates": [
          5.7407991,
          45.0965478
        ]
      },
      "id": "node/1428008819"
    },
    {
      "type": "Feature",
      "properties": {
        "@id": "node/1428010456",
        "ele": "269",
        "information": "guidepost",
        "name": "Chapelle de la Madeleine",
        "tourism": "information"
      },
      "geometry": {
        "type": "Point",
        "coordinates": [
          5.7423083,
          45.0824682
        ]
      },
      "id": "node/1428010456"
    },
    {
      "type": "Feature",
      "properties": {
        "@id": "node/1428015564",
        "ele": "269",
        "information": "guidepost",
        "name": "Pont de la Madeleine",
        "tourism": "information"
      },
      "geometry": {
        "type": "Point",
        "coordinates": [
          5.7436172,
          45.0831958
        ]
      },
      "id": "node/1428015564"
    },
    {
      "type": "Feature",
      "properties": {
        "@id": "node/1428016467",
        "information": "guidepost",
        "tourism": "information"
      },
      "geometry": {
        "type": "Point",
        "coordinates": [
          5.7430885,
          45.0853866
        ]
      },
      "id": "node/1428016467"
    },
    {
      "type": "Feature",
      "properties": {
        "@id": "node/1431598850",
        "ele": "230",
        "hiking": "yes",
        "information": "guidepost",
        "name": "Échirolles Le Village",
        "source": "survey",
        "survey:date": "2022-12-04",
        "tourism": "information"
      },
      "geometry": {
        "type": "Point",
        "coordinates": [
          5.721148,
          45.1395437
        ]
      },
      "id": "node/1431598850"
    },
    {
      "type": "Feature",
      "properties": {
        "@id": "node/1431599144",
        "ele": "350",
        "information": "guidepost",
        "name": "Pré Fumoux et Foudon",
        "tourism": "information"
      },
      "geometry": {
        "type": "Point",
        "coordinates": [
          5.751417,
          45.1088325
        ]
      },
      "id": "node/1431599144"
    },
    {
      "type": "Feature",
      "properties": {
        "@id": "node/1432400731",
        "bicycle": "yes",
        "ele": "380",
        "hiking": "yes",
        "horse": "yes",
        "information": "guidepost",
        "mtb": "yes",
        "name": "Le Platre",
        "tourism": "information"
      },
      "geometry": {
        "type": "Point",
        "coordinates": [
          5.7475132,
          45.1180102
        ]
      },
      "id": "node/1432400731"
    },
    {
      "type": "Feature",
      "properties": {
        "@id": "node/1432400732",
        "information": "guidepost",
        "tourism": "information"
      },
      "geometry": {
        "type": "Point",
        "coordinates": [
          5.7476244,
          45.1178145
        ]
      },
      "id": "node/1432400732"
    },
    {
      "type": "Feature",
      "properties": {
        "@id": "node/1432444066",
        "information": "guidepost",
        "tourism": "information"
      },
      "geometry": {
        "type": "Point",
        "coordinates": [
          5.7418006,
          45.1012774
        ]
      },
      "id": "node/1432444066"
    },
    {
      "type": "Feature",
      "properties": {
        "@id": "node/1432444070",
        "ele": "300",
        "hiking": "yes",
        "information": "guidepost",
        "mtb": "yes",
        "name": "Le Prieuré",
        "tourism": "information"
      },
      "geometry": {
        "type": "Point",
        "coordinates": [
          5.7383481,
          45.1002298
        ]
      },
      "id": "node/1432444070"
    },
    {
      "type": "Feature",
      "properties": {
        "@id": "node/1434041657",
        "ele": "236",
        "hiking": "yes",
        "information": "guidepost",
        "name": "Maison des Associations",
        "source": "survey",
        "survey:date": "2022-11-29",
        "tourism": "information"
      },
      "geometry": {
        "type": "Point",
        "coordinates": [
          5.7507315,
          45.1489595
        ]
      },
      "id": "node/1434041657"
    },
    {
      "type": "Feature",
      "properties": {
        "@id": "node/1434041658",
        "hiking": "yes",
        "information": "guidepost",
        "tourism": "information"
      },
      "geometry": {
        "type": "Point",
        "coordinates": [
          5.7478115,
          45.1543899
        ]
      },
      "id": "node/1434041658"
    },
    {
      "type": "Feature",
      "properties": {
        "@id": "node/1434041659",
        "hiking": "yes",
        "information": "guidepost",
        "tourism": "information"
      },
      "geometry": {
        "type": "Point",
        "coordinates": [
          5.7505463,
          45.1489118
        ]
      },
      "id": "node/1434041659"
    },
    {
      "type": "Feature",
      "properties": {
        "@id": "node/1434041661",
        "ele": "235",
        "information": "guidepost",
        "name": "Le Verderet",
        "source": "survey",
        "tourism": "information"
      },
      "geometry": {
        "type": "Point",
        "coordinates": [
          5.7546175,
          45.147045
        ]
      },
      "id": "node/1434041661"
    },
    {
      "type": "Feature",
      "properties": {
        "@id": "node/1434043893",
        "bicycle": "yes",
        "ele": "235",
        "hiking": "yes",
        "information": "guidepost",
        "mtb": "yes",
        "name": "Eybens Bourg",
        "tourism": "information"
      },
      "geometry": {
        "type": "Point",
        "coordinates": [
          5.7519087,
          45.1471111
        ]
      },
      "id": "node/1434043893"
    },
    {
      "type": "Feature",
      "properties": {
        "@id": "node/1434044256",
        "information": "guidepost",
        "tourism": "information"
      },
      "geometry": {
        "type": "Point",
        "coordinates": [
          5.7829369,
          45.0950758
        ]
      },
      "id": "node/1434044256"
    },
    {
      "type": "Feature",
      "properties": {
        "@id": "node/1434044257",
        "information": "guidepost",
        "tourism": "information"
      },
      "geometry": {
        "type": "Point",
        "coordinates": [
          5.782776,
          45.0951439
        ]
      },
      "id": "node/1434044257"
    },
    {
      "type": "Feature",
      "properties": {
        "@id": "node/1434088066",
        "information": "guidepost",
        "tourism": "information"
      },
      "geometry": {
        "type": "Point",
        "coordinates": [
          5.7540387,
          45.0669016
        ]
      },
      "id": "node/1434088066"
    },
    {
      "type": "Feature",
      "properties": {
        "@id": "node/1434089264",
        "information": "guidepost",
        "tourism": "information"
      },
      "geometry": {
        "type": "Point",
        "coordinates": [
          5.7543906,
          45.0671834
        ]
      },
      "id": "node/1434089264"
    },
    {
      "type": "Feature",
      "properties": {
        "@id": "node/1434099505",
        "ele": "360",
        "information": "guidepost",
        "name": "N.D. de Mésage",
        "survey:date": "2023-05-30",
        "tourism": "information"
      },
      "geometry": {
        "type": "Point",
        "coordinates": [
          5.7575178,
          45.0700461
        ]
      },
      "id": "node/1434099505"
    },
    {
      "type": "Feature",
      "properties": {
        "@id": "node/1434099506",
        "ele": "360",
        "hiking": "yes",
        "information": "guidepost",
        "name": "Pré la Cure",
        "tourism": "information"
      },
      "geometry": {
        "type": "Point",
        "coordinates": [
          5.7545725,
          45.0664485
        ]
      },
      "id": "node/1434099506"
    },
    {
      "type": "Feature",
      "properties": {
        "@id": "node/1437209926",
        "ele": "390",
        "information": "guidepost",
        "name": "Château de Bon Repos",
        "tourism": "information"
      },
      "geometry": {
        "type": "Point",
        "coordinates": [
          5.7588506,
          45.1120709
        ]
      },
      "id": "node/1437209926"
    },
    {
      "type": "Feature",
      "properties": {
        "@id": "node/1437209927",
        "ele": "390",
        "information": "guidepost",
        "name": "Le Mollard",
        "tourism": "information"
      },
      "geometry": {
        "type": "Point",
        "coordinates": [
          5.7552942,
          45.1152193
        ]
      },
      "id": "node/1437209927"
    },
    {
      "type": "Feature",
      "properties": {
        "@id": "node/1449350234",
        "ele": "284",
        "information": "guidepost",
        "name": "Les Viallards",
        "tourism": "information"
      },
      "geometry": {
        "type": "Point",
        "coordinates": [
          5.7218589,
          45.0636311
        ]
      },
      "id": "node/1449350234"
    },
    {
      "type": "Feature",
      "properties": {
        "@id": "node/1452560652",
        "bicycle": "yes",
        "ele": "220",
        "hiking": "yes",
        "information": "guidepost",
        "mtb": "yes",
        "name": "Le Béril",
        "source": "repérage lieux + cadastre-dgi-fr source : Direction Générale des Impôts - Cadastre;mise à jour :2011",
        "tourism": "information"
      },
      "geometry": {
        "type": "Point",
        "coordinates": [
          5.6160291,
          45.2782931
        ]
      },
      "id": "node/1452560652"
    },
    {
      "type": "Feature",
      "properties": {
        "@id": "node/1452560667",
        "ele": "210",
        "fixme": "plus visible en février 2021",
        "hiking": "yes",
        "information": "guidepost",
        "name": "Tour des Templiers",
        "tourism": "information"
      },
      "geometry": {
        "type": "Point",
        "coordinates": [
          5.6156894,
          45.2719932
        ]
      },
      "id": "node/1452560667"
    },
    {
      "type": "Feature",
      "properties": {
        "@id": "node/1453715465",
        "ele": "278",
        "information": "guidepost",
        "name": "Cimetière Font Fraîche",
        "tourism": "information"
      },
      "geometry": {
        "type": "Point",
        "coordinates": [
          5.725712,
          45.065489
        ]
      },
      "id": "node/1453715465"
    },
    {
      "type": "Feature",
      "properties": {
        "@id": "node/1460254109",
        "ele": "385",
        "information": "guidepost",
        "name": "Le Touvier",
        "tourism": "information"
      },
      "geometry": {
        "type": "Point",
        "coordinates": [
          5.7451323,
          45.0738452
        ]
      },
      "id": "node/1460254109"
    },
    {
      "type": "Feature",
      "properties": {
        "@id": "node/1460278774",
        "ele": "1380",
        "hiking": "yes",
        "information": "guidepost",
        "name": "Baraque Pagnot",
        "tourism": "information"
      },
      "geometry": {
        "type": "Point",
        "coordinates": [
          5.8284412,
          45.0842857
        ]
      },
      "id": "node/1460278774"
    },
    {
      "type": "Feature",
      "properties": {
        "@id": "node/1460278777",
        "ele": "1350",
        "hiking": "yes",
        "information": "guidepost",
        "name": "Pied du Pic de l'Œilly",
        "tourism": "information"
      },
      "geometry": {
        "type": "Point",
        "coordinates": [
          5.8372501,
          45.0914215
        ]
      },
      "id": "node/1460278777"
    },
    {
      "type": "Feature",
      "properties": {
        "@id": "node/1496533270",
        "ele": "390",
        "information": "guidepost",
        "name": "Les Rivoires",
        "tourism": "information"
      },
      "geometry": {
        "type": "Point",
        "coordinates": [
          5.7363477,
          45.0724151
        ]
      },
      "id": "node/1496533270"
    },
    {
      "type": "Feature",
      "properties": {
        "@id": "node/1508586157",
        "ele": "260",
        "information": "guidepost",
        "name": "Basse Jarrie",
        "tourism": "information"
      },
      "geometry": {
        "type": "Point",
        "coordinates": [
          5.743552,
          45.085416
        ]
      },
      "id": "node/1508586157"
    },
    {
      "type": "Feature",
      "properties": {
        "@id": "node/1509895163",
        "ele": "405",
        "information": "guidepost",
        "name": "La Croix De La Vue",
        "tourism": "information"
      },
      "geometry": {
        "type": "Point",
        "coordinates": [
          5.748899,
          45.086585
        ]
      },
      "id": "node/1509895163"
    },
    {
      "type": "Feature",
      "properties": {
        "@id": "node/1509896240",
        "ele": "405",
        "information": "guidepost",
        "name": "La Croix De La Vue",
        "tourism": "information"
      },